[
  {
    "location": {
      "lat": 52.23303800000001,
      "lng": 21.01950599999998
    },
    "name": "Besuto Sushi Bar",
    "place_id": "ChIJlyrHiPbMHkcRG2jOH2ImCA4",
    "rating": 4.3,
    "address": "Nowy Świat 27, Warszawa"
  },
  {
    "location": {
      "lat": 52.2346906,
      "lng": 21.018972500000018
    },
    "name": "Oto! Sushi",
    "place_id": "ChIJe7ybwvXMHkcRuqu_OcRGYBE",
    "rating": 4.3,
    "address": "Nowy Świat 46, Warszawa"
  },
  {
    "location": {
      "lat": 52.22606999999999,
      "lng": 21.01907099999994
    },
    "name": "Tomo Sushi",
    "place_id": "ChIJf5x7OfDMHkcRd25iCnRPtDU",
    "rating": 4.4,
    "address": "Krucza 16/22, Warszawa"
  },
  {
    "location": {
      "lat": 52.2366071,
      "lng": 21.017808699999932
    },
    "name": "Wana Sushi",
    "place_id": "ChIJ4QwXfF_MHkcRbbw3DC7tSOo",
    "rating": 4.2,
    "address": "Nowy Świat 61, Warszawa"
  },
  {
    "location": {
      "lat": 52.2317163,
      "lng": 21.0173178
    },
    "name": "Doozo Sushi & Sticks",
    "place_id": "ChIJSYVwG_TMHkcRIdJ7gpH7wSA",
    "rating": 4,
    "address": "Bracka 18, Warszawa"
  },
  {
    "location": {
      "lat": 52.2304575,
      "lng": 21.051978299999973
    },
    "name": "Sushi Saska Kępa",
    "place_id": "ChIJ2Qug-anNHkcRuq8lC5Q-9aw",
    "rating": 4.8,
    "address": "Zwycięzców 4, Warszawa"
  },
  {
    "location": {
      "lat": 52.2389017,
      "lng": 21.0249235
    },
    "name": "CHO CHO SAN Sushi Powiśle",
    "place_id": "ChIJ9SN3PlnMHkcRbc0dlOAgrOQ",
    "rating": 4.5,
    "address": "Topiel 12, Warszawa"
  },
  {
    "location": {
      "lat": 52.22913349999999,
      "lng": 21.018132599999944
    },
    "name": "SushiZushi",
    "place_id": "ChIJn_SqFfHMHkcROxqpYmJONC0",
    "rating": 4.5,
    "address": "Żurawia 6/12, Warszawa"
  },
  {
    "location": {
      "lat": 52.2344372,
      "lng": 21.033086499999968
    },
    "name": "Sushi Sikoko",
    "place_id": "ChIJefqmMFbMHkcRbsm8Tg91VDQ",
    "rating": 4,
    "address": "Solec 81B, Warszawa"
  },
  {
    "location": {
      "lat": 52.22906130000001,
      "lng": 21.018289500000037
    },
    "name": "Restauracja Warszawa NU JAZZ ZONE",
    "place_id": "ChIJn_SqFfHMHkcRw0JuF051cvY",
    "rating": 4.8,
    "address": "Żurawia 6/12, Warszawa"
  },
  {
    "location": {
      "lat": 52.2330385,
      "lng": 21.01950599999998
    },
    "name": "The Place Sushi",
    "place_id": "ChIJL2vEhvbMHkcRStbbRGzZb1g",
    "rating": 4.7,
    "address": "Nowy Świat 27, Warszawa"
  },
  {
    "location": {
      "lat": 52.238474,
      "lng": 21.01880899999992
    },
    "name": "Handroll",
    "place_id": "ChIJY9ZiB1_MHkcRHB9nh8_NCy4",
    "rating": 4.3,
    "address": "Oboźna 11, Warszawa"
  },
  {
    "location": {
      "lat": 52.23015799999999,
      "lng": 21.017012000000022
    },
    "name": "Street Sushi",
    "place_id": "ChIJIQyTWfHMHkcRDNj6_P176KY",
    "rating": 4.6,
    "address": "Krucza 46, Warszawa"
  },
  {
    "location": {
      "lat": 52.2331153,
      "lng": 21.018050300000027
    },
    "name": "Sushi Studio - Box & Take Away",
    "place_id": "ChIJmclmLvTMHkcRLIgRqGBrMhQ",
    "rating": 4.5,
    "address": "Chmielna 6, Warszawa"
  },
  {
    "location": {
      "lat": 52.23769590000001,
      "lng": 21.051684600000044
    },
    "name": "Sushi SILK & SPICY THAÏ Restaurant",
    "place_id": "ChIJZe6H5azNHkcRc5t_po62S94",
    "rating": 4.5,
    "address": "Francuska 46, Warszawa"
  },
  {
    "location": {
      "lat": 52.2323967,
      "lng": 21.01913250000007
    },
    "name": "Klub MUZA",
    "place_id": "ChIJC2HFOvTMHkcRy_5KOIqm250",
    "rating": 3.5,
    "address": "Chmielna 9, Warszawa"
  }
]
